__time,/xplorer_mini/gnc/auv_status/eta[0],/xplorer_mini/gnc/auv_status/eta[1],/xplorer_mini/gnc/auv_status/eta[2],/xplorer_mini/gnc/auv_status/eta[3],/xplorer_mini/gnc/auv_status/eta[4],/xplorer_mini/gnc/auv_status/eta[5],/xplorer_mini/gnc/auv_status/eta_ddiff[0],/xplorer_mini/gnc/auv_status/eta_ddiff[1],/xplorer_mini/gnc/auv_status/eta_ddiff[2],/xplorer_mini/gnc/auv_status/eta_ddiff[3],/xplorer_mini/gnc/auv_status/eta_ddiff[4],/xplorer_mini/gnc/auv_status/eta_ddiff[5],/xplorer_mini/gnc/auv_status/eta_diff[0],/xplorer_mini/gnc/auv_status/eta_diff[1],/xplorer_mini/gnc/auv_status/eta_diff[2],/xplorer_mini/gnc/auv_status/eta_diff[3],/xplorer_mini/gnc/auv_status/eta_diff[4],/xplorer_mini/gnc/auv_status/eta_diff[5],/xplorer_mini/gnc/auv_status/eta_e[0],/xplorer_mini/gnc/auv_status/eta_e[1],/xplorer_mini/gnc/auv_status/eta_e[2],/xplorer_mini/gnc/auv_status/eta_e[3],/xplorer_mini/gnc/auv_status/eta_e[4],/xplorer_mini/gnc/auv_status/eta_e[5],/xplorer_mini/gnc/auv_status/eta_ref[0],/xplorer_mini/gnc/auv_status/eta_ref[1],/xplorer_mini/gnc/auv_status/eta_ref[2],/xplorer_mini/gnc/auv_status/eta_ref[3],/xplorer_mini/gnc/auv_status/eta_ref[4],/xplorer_mini/gnc/auv_status/eta_ref[5],/xplorer_mini/gnc/auv_status/eta_ref_ddiff[0],/xplorer_mini/gnc/auv_status/eta_ref_ddiff[1],/xplorer_mini/gnc/auv_status/eta_ref_ddiff[2],/xplorer_mini/gnc/auv_status/eta_ref_ddiff[3],/xplorer_mini/gnc/auv_status/eta_ref_ddiff[4],/xplorer_mini/gnc/auv_status/eta_ref_ddiff[5],/xplorer_mini/gnc/auv_status/eta_ref_diff[0],/xplorer_mini/gnc/auv_status/eta_ref_diff[1],/xplorer_mini/gnc/auv_status/eta_ref_diff[2],/xplorer_mini/gnc/auv_status/eta_ref_diff[3],/xplorer_mini/gnc/auv_status/eta_ref_diff[4],/xplorer_mini/gnc/auv_status/eta_ref_diff[5],/xplorer_mini/gnc/auv_status/header/stamp/nanosec,/xplorer_mini/gnc/auv_status/header/stamp/sec,/xplorer_mini/gnc/auv_status/nu[0],/xplorer_mini/gnc/auv_status/nu[1],/xplorer_mini/gnc/auv_status/nu[2],/xplorer_mini/gnc/auv_status/nu[3],/xplorer_mini/gnc/auv_status/nu[4],/xplorer_mini/gnc/auv_status/nu[5],/xplorer_mini/gnc/auv_status/nu_diff[0],/xplorer_mini/gnc/auv_status/nu_diff[1],/xplorer_mini/gnc/auv_status/nu_diff[2],/xplorer_mini/gnc/auv_status/nu_diff[3],/xplorer_mini/gnc/auv_status/nu_diff[4],/xplorer_mini/gnc/auv_status/nu_diff[5],/xplorer_mini/gnc/auv_status/tau[0],/xplorer_mini/gnc/auv_status/tau[1],/xplorer_mini/gnc/auv_status/tau[2],/xplorer_mini/gnc/auv_status/tau[3],/xplorer_mini/gnc/auv_status/tau[4],/xplorer_mini/gnc/auv_status/tau[5],/xplorer_mini/gnc/auv_status/thrust_force[0],/xplorer_mini/gnc/auv_status/thrust_force[1],/xplorer_mini/gnc/auv_status/thrust_force[2],/xplorer_mini/gnc/auv_status/thrust_force[3],/xplorer_mini/gnc/auv_status/thrust_force[4],/xplorer_mini/gnc/auv_status/thrust_force[5],/xplorer_mini/gnc/auv_status/thrust_force[6],/xplorer_mini/gnc/auv_status/thrust_force[7]
1720790228.872044,-0.004632569,0.013302889,-0.237863409,0.009349031,-0.002615499,0.044143108,0.000000000,0.000000000,0.000000000,0.000000000,0.000000000,0.000000000,-0.002240161,0.003354804,-0.007225407,-0.003486281,0.001034811,0.030891706,-0.008065848,0.006577077,-0.037863409,0.009349031,-0.002615499,0.044233197,0.003433279,0.006725812,-0.200000000,0.000000000,-0.000000000,-0.000090089,0.000000000,0.000000000,0.000000000,0.000000000,0.000000000,0.000000000,0.000000000,0.000000000,0.000000000,-0.000000000,0.000000000,-0.000000000,566000000.000000000,87.000000000,-0.003418020,0.003641656,-0.008176686,-0.004523325,0.001375836,0.007454071,0.006427540,0.006013858,-0.005882627,-0.008633412,0.001866251,-0.327271182,0.566522629,-0.038224565,-3.709306282,-0.319601805,0.129173546,-1.208958979,-4.188140166,3.181472150,-1.224177582,-0.409666078,-1.429480073,-0.645982550,3.546788302,-3.899273144
1720790228.971969,-0.004742093,0.013657443,-0.238572225,0.008715110,-0.002495225,0.041902189,0.000000000,0.000000000,0.000000000,0.000000000,0.000000000,0.000000000,-0.001423683,0.003439658,-0.007032046,-0.005396324,0.001135851,-0.006111345,-0.008175372,0.006931631,-0.038572225,0.008715110,-0.002495225,0.041992278,0.003433279,0.006725812,-0.200000000,0.000000000,-0.000000000,-0.000090089,0.000000000,0.000000000,0.000000000,0.000000000,0.000000000,0.000000000,0.000000000,0.000000000,0.000000000,-0.000000000,0.000000000,-0.000000000,666000000.000000000,87.000000000,-0.002533771,0.003939191,-0.008080763,-0.005113818,0.001778961,-0.032683732,0.007996640,0.003846066,-0.001106489,-0.006642431,0.003326422,-0.373636863,0.714338375,-0.187266342,-2.577232974,-0.388768759,0.077103197,-1.708988550,-5.684469185,4.600008039,-1.033916327,-0.122899824,-1.226622058,-0.193794765,5.199709933,-5.459299976
1720790229.072391,-0.004743944,0.013946577,-0.239180036,0.008256474,-0.002046348,0.035519990,0.000000000,0.000000000,0.000000000,0.000000000,0.000000000,0.000000000,-0.000440065,0.003055831,-0.006364290,-0.004829343,0.003482891,-0.046508791,-0.008177223,0.007220765,-0.039180036,0.008256474,-0.002046348,0.035610079,0.003433279,0.006725812,-0.200000000,0.000000000,-0.000000000,-0.000090089,0.000000000,0.000000000,0.000000000,0.000000000,0.000000000,0.000000000,0.000000000,0.000000000,0.000000000,-0.000000000,0.000000000,-0.000000000,766000000.000000000,87.000000000,-0.001522187,0.003834978,-0.007471752,-0.004861251,0.002239824,-0.072657274,0.009480079,0.000424328,0.003931125,-0.000224758,0.004223965,-0.391905857,0.834488455,-0.371959047,-1.763735466,-0.314743743,0.069960846,-2.095446869,-6.781858351,5.685930573,-0.725406596,-0.036869947,-0.943320493,-0.058138429,6.539695887,-6.672011131
1720790229.174472,-0.004616787,0.014095614,-0.239658550,0.007854627,-0.001772085,0.025627709,0.000000000,0.000000000,0.000000000,0.000000000,0.000000000,0.000000000,0.000758086,0.001960009,-0.005258882,-0.004261734,0.002964712,-0.083198609,-0.008050065,0.007369802,-0.039658550,0.007854627,-0.001772085,0.025717798,0.003433279,0.006725812,-0.200000000,0.000000000,-0.000000000,-0.000090089,0.000000000,0.000000000,0.000000000,0.000000000,0.000000000,0.000000000,0.000000000,0.000000000,0.000000000,-0.000000000,0.000000000,-0.000000000,868000000.000000000,87.000000000,-0.000338329,0.003129494,-0.006459955,-0.003483295,0.002723730,-0.106341198,0.011131027,-0.004811088,0.008261923,0.009578264,0.004654535,-0.353359223,0.930240549,-0.609353338,-1.032906029,-0.195180201,0.060255329,-2.260316358,-7.153646522,6.086977821,-0.402391468,-0.011060984,-0.602012048,-0.017441529,7.233421546,-7.225909474
1720790229.276758,-0.004375865,0.013995305,-0.239982548,0.007702331,-0.001360028,0.013226193,0.000000000,0.000000000,0.000000000,0.000000000,0.000000000,0.000000000,0.001880806,-0.000100393,-0.003801185,-0.002323687,0.003717255,-0.110068026,-0.007809144,0.007269493,-0.039982548,0.007702331,-0.001360028,0.013316282,0.003433279,0.006725812,-0.200000000,0.000000000,-0.000000000,-0.000090089,0.000000000,0.000000000,0.000000000,0.000000000,0.000000000,0.000000000,0.000000000,0.000000000,0.000000000,-0.000000000,0.000000000,-0.000000000,970000000.000000000,87.000000000,0.000877725,0.001564491,-0.005152591,-0.000980921,0.003302057,-0.125077532,0.011684776,-0.012183547,0.011450679,0.020046632,0.005365273,-0.234590449,1.003656086,-0.905784360,-0.309871809,-0.058554060,0.018076599,-2.052584884,-6.357760545,5.313568356,-0.120717440,-0.003318295,-0.180603614,-0.005232459,6.798830826,-6.684066796
1720790229.376441,-0.004099710,0.013635080,-0.240131917,0.007838820,-0.000922172,0.000262354,0.000000000,0.000000000,0.000000000,0.000000000,0.000000000,0.000000000,0.002459425,-0.002502247,-0.002165436,0.000239581,0.004120067,-0.121987925,-0.007532989,0.006909268,-0.040131917,0.007838820,-0.000922172,0.000352444,0.003433279,0.006725812,-0.200000000,0.000000000,-0.000000000,-0.000090089,0.000000000,0.000000000,0.000000000,0.000000000,0.000000000,0.000000000,0.000000000,0.000000000,0.000000000,-0.000000000,0.000000000,-0.000000000,70000000.000000000,88.000000000,0.001788553,-0.000548966,-0.003655701,0.001782267,0.003860459,-0.127083820,0.009756216,-0.018159180,0.013707979,0.024977044,0.005441750,-0.084145780,0.880735565,-0.967957547,-0.092961543,-0.017566218,0.005422980,-1.394796090,-4.275389674,3.303197447,-0.036215232,-0.000995489,-0.054181084,-0.001569738,4.779662825,-4.734839388
1720790229.476229,-0.003826174,0.013195246,-0.240101058,0.008369085,-0.000308225,-0.011979842,0.000000000,0.000000000,0.000000000,0.000000000,0.000000000,0.000000000,0.002652581,-0.003829512,-0.000433614,0.003783726,0.005533650,-0.122291755,-0.007259453,0.006469434,-0.040101058,0.008369085,-0.000308225,-0.011889753,0.003433279,0.006725812,-0.200000000,0.000000000,-0.000000000,-0.000090089,0.000000000,0.000000000,0.000000000,0.000000000,0.000000000,0.000000000,0.000000000,0.000000000,0.000000000,-0.000000000,0.000000000,-0.000000000,170000000.000000000,88.000000000,0.002393540,-0.002256932,-0.002047822,0.004141450,0.004363243,-0.119883313,0.007161774,-0.017403518,0.015367545,0.024007393,0.005152015,0.025159815,0.554777738,-0.712248260,-0.027888463,-0.005269865,0.001626894,-0.686094367,-2.112976261,1.378785084,-0.010864570,-0.000298647,-0.016254325,-0.000470921,2.411343816,-2.504914048
1720790229.577168,-0.003584225,0.012729481,-0.239891399,0.008822635,0.000144432,-0.023170101,0.000000000,0.000000000,0.000000000,0.000000000,0.000000000,0.000000000,0.002489417,-0.004409207,0.001337526,0.004309970,0.004828694,-0.115019334,-0.007017504,0.006003669,-0.039891399,0.008822635,0.000144432,-0.023080011,0.003433279,0.006725812,-0.200000000,0.000000000,-0.000000000,-0.000090089,0.000000000,0.000000000,0.000000000,0.000000000,0.000000000,0.000000000,0.000000000,0.000000000,0.000000000,-0.000000000,0.000000000,-0.000000000,270000000.000000000,88.000000000,0.002677393,-0.003467661,-0.000368511,0.005693686,0.004664745,-0.108687099,0.004135501,-0.013696158,0.016365444,0.018067870,0.003656114,0.085921446,-0.020301931,-0.321489288,-0.008366539,-0.001580960,0.000488068,-0.223423687,-0.633892878,0.413635525,-0.003259371,-0.000089594,-0.004876298,-0.000141276,0.723403145,-0.967103836
1720790229.677981,-0.003326366,0.012209081,-0.239511676,0.009537743,0.000766644,-0.033204232,0.000000000,0.000000000,0.000000000,0.000000000,0.000000000,0.000000000,0.002551837,-0.004965564,0.003059320,0.006298746,0.005804096,-0.104744717,-0.006759645,0.005483269,-0.039511676,0.009537743,0.000766644,-0.033114142,0.003433279,0.006725812,-0.200000000,0.000000000,-0.000000000,-0.000090089,0.000000000,0.000000000,0.000000000,0.000000000,0.000000000,0.000000000,0.000000000,0.000000000,0.000000000,-0.000000000,0.000000000,-0.000000000,370000000.000000000,88.000000000,0.002938449,-0.004458494,0.001312631,0.006499508,0.004643079,-0.093685072,0.003068047,-0.011044678,0.016677624,0.011061121,0.000945176,0.130790621,0.288351483,-0.266447977,-0.002509962,-0.000474288,0.000146420,-0.039282912,-0.190167863,-0.215911724,-0.000977811,-0.000026878,-0.001462889,-0.000042383,0.217020943,-0.290131151
1720790229.778031,-0.003081367,0.011585480,-0.238988023,0.010170941,0.001283220,-0.040999967,0.000000000,0.000000000,0.000000000,0.000000000,0.000000000,0.000000000,0.002480544,-0.005854879,0.004583367,0.006322013,0.005357259,-0.085993562,-0.006514646,0.004859668,-0.038988023,0.010170941,0.001283220,-0.040909878,0.003433279,0.006725812,-0.200000000,0.000000000,-0.000000000,-0.000090089,0.000000000,0.000000000,0.000000000,0.000000000,0.000000000,0.000000000,0.000000000,0.000000000,0.000000000,-0.000000000,0.000000000,-0.000000000,470000000.000000000,88.000000000,0.003067460,-0.005497154,0.002915162,0.006623276,0.004191732,-0.071872013,0.001823490,-0.010584023,0.016221007,0.004184709,-0.002875880,0.191928596,0.337446055,-0.409297959,-0.000752988,-0.000142286,0.000043926,0.245816367,0.643642408,-1.271883289,-0.000293343,-0.000008063,-0.000438867,-0.000012715,-0.667755044,0.429174735
1720790229.880171,-0.002901936,0.010866210,-0.238352388,0.010730194,0.001712525,-0.046075760,0.000000000,0.000000000,0.000000000,0.000000000,0.000000000,0.000000000,0.002000182,-0.006791351,0.005824453,0.005811372,0.004612314,-0.061328622,-0.006335215,0.004140398,-0.038352388,0.010730194,0.001712525,-0.045985671,0.003433279,0.006725812,-0.200000000,0.000000000,-0.000000000,-0.000090089,0.000000000,0.000000000,0.000000000,0.000000000,0.000000000,0.000000000,0.000000000,0.000000000,0.000000000,-0.000000000,0.000000000,-0.000000000,572000000.000000000,88.000000000,0.002892225,-0.006540857,0.004390973,0.006154549,0.003432020,-0.041735408,-0.000679598,-0.010481129,0.015196978,-0.002025675,-0.006180744,0.268534818,0.381298056,-0.520905193,-0.000225897,-0.000042686,0.000013178,0.681749026,1.948505901,-2.749783027,-0.000088003,-0.000002419,-0.000131660,-0.000003814,-2.008728841,1.647749701
1720790229.980602,-0.002832410,0.010084848,-0.237639414,0.011394023,0.001995483,-0.047571985,0.000000000,0.000000000,0.000000000,0.000000000,0.000000000,0.000000000,0.001077192,-0.007399692,0.006640293,0.006299100,0.003325559,-0.028666795,-0.006265689,0.003359036,-0.037639414,0.011394023,0.001995483,-0.047481896,0.003433279,0.006725812,-0.200000000,0.000000000,-0.000000000,-0.000090089,0.000000000,0.000000000,0.000000000,0.000000000,0.000000000,0.000000000,0.000000000,0.000000000,0.000000000,-0.000000000,0.000000000,-0.000000000,672000000.000000000,88.000000000,0.002305071,-0.007411451,0.005670551,0.005187320,0.002460890,-0.003640939,-0.004233373,-0.009119000,0.013340509,-0.007245552,-0.008518840,0.341993071,0.403629880,-0.530778583,-0.000067769,-0.000012806,0.000003953,1.213077959,3.538085592,-4.425768718,-0.000026401,-0.000000726,-0.000039498,-0.000001144,-3.661947479,3.240349664
1720790230.080403,-0.002863038,0.009373414,-0.236896300,0.011724258,0.002161628,-0.044691129,0.000000000,0.000000000,0.000000000,0.000000000,0.000000000,0.000000000,0.000108761,-0.007199949,0.007193886,0.004201379,0.002160683,0.011565952,-0.006296317,0.002647602,-0.036896300,0.011724258,0.002161628,-0.044601040,0.003433279,0.006725812,-0.200000000,0.000000000,-0.000000000,-0.000090089,0.000000000,0.000000000,0.000000000,0.000000000,0.000000000,0.000000000,0.000000000,0.000000000,0.000000000,-0.000000000,0.000000000,-0.000000000,772000000.000000000,88.000000000,0.001496359,-0.007720608,0.006684892,0.003861691,0.001348093,0.040165742,-0.006930995,-0.004899801,0.011102543,-0.011453066,-0.010345232,0.409244694,0.488435538,-0.398076436,-0.501044710,-0.100208718,-0.014784977,1.752107092,5.068194222,-6.065832534,-0.275795601,-0.000000218,-0.225248547,-0.000000343,-5.385749437,4.952124448
1720790230.180422,-0.002970367,0.008828644,-0.236155576,0.012031258,0.002089045,-0.037396783,0.000000000,0.000000000,0.000000000,0.000000000,0.000000000,0.000000000,-0.000718671,-0.005973372,0.007343235,0.003409410,0.000140130,0.054530206,-0.006403646,0.002102832,-0.036155576,0.012031258,0.002089045,-0.037306694,0.003433279,0.006725812,-0.200000000,0.000000000,-0.000000000,-0.000090089,0.000000000,0.000000000,0.000000000,0.000000000,0.000000000,0.000000000,0.000000000,0.000000000,0.000000000,-0.000000000,0.000000000,-0.000000000,872000000.000000000,88.000000000,0.000585809,-0.007206263,0.007402335,0.002490897,0.000091411,0.084705010,-0.008453148,0.002130476,0.008352867,-0.013031480,-0.011900343,0.434548282,0.671042610,-0.111985726,-0.931547771,-0.186309487,-0.027379599,2.194362750,6.186179477,-7.371656431,-0.512576554,-0.000000065,-0.418971048,-0.000000103,-6.872232709,6.461631748
1720790230.281379,-0.003166470,0.008607346,-0.235455202,0.012162080,0.001773329,-0.025787231,0.000000000,0.000000000,0.000000000,0.000000000,0.000000000,0.000000000,-0.001588323,-0.003341100,0.007105593,0.001938581,-0.002167975,0.097625931,-0.006599749,0.001881534,-0.035455202,0.012162080,0.001773329,-0.025697142,0.003433279,0.006725812,-0.200000000,0.000000000,-0.000000000,-0.000090089,0.000000000,0.000000000,0.000000000,0.000000000,0.000000000,0.000000000,0.000000000,0.000000000,0.000000000,-0.000000000,0.000000000,-0.000000000,972000000.000000000,88.000000000,-0.000475437,-0.005495055,0.007780536,0.002313467,-0.001203051,0.120800047,-0.009964667,0.012617599,0.005153264,-0.005151454,-0.012631341,0.383029740,0.771487646,0.336392929,-1.379392970,-0.275878574,-0.038443819,2.364200896,6.457643588,-7.692488580,-0.755412395,-0.000000020,-0.623980524,-0.000000031,-7.583449844,7.239468184
1720790230.381697,-0.003365467,0.008942381,-0.234832866,0.012599757,0.001306728,-0.011995437,0.000000000,0.000000000,0.000000000,0.000000000,0.000000000,0.000000000,-0.001869479,0.001342915,0.006488026,0.003645314,-0.003916600,0.125830333,-0.006798746,0.002216569,-0.034832866,0.012599757,0.001306728,-0.011905348,0.003433279,0.006725812,-0.200000000,0.000000000,-0.000000000,-0.000090089,0.000000000,0.000000000,0.000000000,0.000000000,0.000000000,0.000000000,0.000000000,0.000000000,0.000000000,-0.000000000,0.000000000,-0.000000000,72000000.000000000,89.000000000,-0.001299351,-0.002006862,0.007760321,0.004350629,-0.002769888,0.138874799,-0.008756799,0.028202629,0.001404476,0.012714699,-0.014757257,0.241432191,0.754165115,1.097345918,-2.103203360,-0.316823276,-0.123178173,2.048875478,5.166463541,-6.290574597,-1.002619179,-0.259543480,-0.841040691,-0.000000009,-6.952490311,6.699239664
1720790230.483698,-0.003529208,0.009536650,-0.234332825,0.013227003,0.000786511,0.002151006,0.000000000,0.000000000,0.000000000,0.000000000,0.000000000,0.000000000,-0.001707031,0.004562758,0.005446697,0.005484314,-0.004816499,0.136774201,-0.006962487,0.002810838,-0.034332825,0.013227003,0.000786511,0.002241095,0.003433279,0.006725812,-0.200000000,0.000000000,-0.000000000,-0.000090089,0.000000000,0.000000000,0.000000000,0.000000000,0.000000000,0.000000000,0.000000000,0.000000000,0.000000000,-0.000000000,0.000000000,-0.000000000,174000000.000000000,89.000000000,-0.001698029,0.001426335,0.007336656,0.005874453,-0.004563472,0.138562122,-0.005417781,0.032493168,-0.002544316,0.014481177,-0.016982266,0.070240919,0.588715893,1.330384751,-2.730921556,-0.368601981,-0.182462901,1.297827449,2.831704777,-3.790284546,-1.233407350,-0.443955822,-1.053558381,-0.000000003,-4.780764048,4.501994778
1720790230.584600,-0.003695501,0.010112691,-0.233984721,0.013881384,0.000035965,0.015397283,0.000000000,0.000000000,0.000000000,0.000000000,0.000000000,0.000000000,-0.001653331,0.005322054,0.004022958,0.006136146,-0.006595757,0.131938085,-0.007128780,0.003386880,-0.033984721,0.013881384,0.000035965,0.015487372,0.003433279,0.006725812,-0.200000000,0.000000000,-0.000000000,-0.000090089,0.000000000,0.000000000,0.000000000,0.000000000,0.000000000,0.000000000,0.000000000,0.000000000,0.000000000,-0.000000000,0.000000000,-0.000000000,274000000.000000000,89.000000000,-0.001884577,0.003627553,0.006568392,0.005578709,-0.006226960,0.128693729,-0.002905568,0.024854348,-0.006035691,0.002314738,-0.016510778,-0.046651995,0.382624692,0.878900451,-3.548947228,-0.364207911,-0.150564315,0.545221384,0.849511433,-1.612405418,-1.432313849,-0.599534663,-1.252679543,-0.264419173,-2.270390920,1.949326833
1720790230.684313,-0.003816560,0.010631231,-0.233810417,0.014230594,-0.000853792,0.027307989,0.000000000,0.000000000,0.000000000,0.000000000,0.000000000,0.000000000,-0.001343415,0.005226390,0.002427014,0.004285311,-0.008207027,0.122956367,-0.007249839,0.003905419,-0.033810417,0.014230594,-0.000853792,0.027398078,0.003433279,0.006725812,-0.200000000,0.000000000,-0.000000000,-0.000090089,0.000000000,0.000000000,0.000000000,0.000000000,0.000000000,0.000000000,0.000000000,0.000000000,0.000000000,-0.000000000,0.000000000,-0.000000000,374000000.000000000,89.000000000,-0.001757157,0.004827197,0.005514405,0.003271146,-0.007270596,0.114498404,0.000020273,0.015853815,-0.009188617,-0.015458519,-0.012258681,-0.113362870,0.114787408,0.263670135,-4.199430296,-0.372397055,-0.128926778,0.163566415,0.254853430,-0.483721626,-1.594645584,-0.725457219,-1.436062200,-0.443265293,-0.681117276,0.584798050
1720790230.784801,-0.003923533,0.011178438,-0.233788343,0.014271543,-0.001853124,0.037372476,0.000000000,0.000000000,0.000000000,0.000000000,0.000000000,0.000000000,-0.001151837,0.005398372,0.000882621,0.001572238,-0.009457433,0.107338317,-0.007356812,0.004452627,-0.033788343,0.014271543,-0.001853124,0.037462565,0.003433279,0.006725812,-0.200000000,0.000000000,-0.000000000,-0.000090089,0.000000000,0.000000000,0.000000000,0.000000000,0.000000000,0.000000000,0.000000000,0.000000000,0.000000000,-0.000000000,0.000000000,-0.000000000,474000000.000000000,89.000000000,-0.001555993,0.005689728,0.004260922,-0.000488689,-0.007341540,0.094517995,0.001414226,0.010793858,-0.011530965,-0.030956403,-0.004174216,-0.173871725,0.257854053,0.339781457,-4.708894545,-0.387057569,-0.102116768,-0.112694369,-0.795111537,0.235199141,-1.721350739,-0.807655110,-1.600740457,-0.579148239,0.044294159,-0.306453606
1720790230.885710,-0.003985064,0.011840570,-0.233884726,0.013814746,-0.002564037,0.044866082,0.000000000,0.000000000,0.000000000,0.000000000,0.000000000,0.000000000,-0.000776268,0.006254430,-0.000409891,-0.002725907,-0.007813618,0.084656736,-0.007418343,0.005114758,-0.033884726,0.013814746,-0.002564037,0.044956171,0.003433279,0.006725812,-0.200000000,0.000000000,-0.000000000,-0.000090089,0.000000000,0.000000000,0.000000000,0.000000000,0.000000000,0.000000000,0.000000000,0.000000000,0.000000000,-0.000000000,0.000000000,-0.000000000,574000000.000000000,89.000000000,-0.001179850,0.006674628,0.002876182,-0.004750901,-0.006295152,0.066608928,0.003057268,0.010132461,-0.013152473,-0.039122405,0.006072450,-0.247524986,0.465913368,0.443536647,-5.057717489,-0.405619736,-0.065860739,-0.526711551,-2.267817900,1.403117957,-1.804675327,-0.836765878,-1.738232758,-0.678043526,1.228584410,-1.555278155
1720790230.987400,-0.004009160,0.012610500,-0.234052526,0.012964356,-0.003136226,0.049000131,0.000000000,0.000000000,0.000000000,0.000000000,0.000000000,0.000000000,-0.000401553,0.007265838,-0.001297569,-0.006770503,-0.006349412,0.054335370,-0.007442439,0.005884688,-0.034052526,0.012964356,-0.003136226,0.049090221,0.003433279,0.006725812,-0.200000000,0.000000000,-0.000000000,-0.000090089,0.000000000,0.000000000,0.000000000,0.000000000,0.000000000,0.000000000,0.000000000,0.000000000,0.000000000,-0.000000000,0.000000000,-0.000000000,676000000.000000000,89.000000000,-0.000722488,0.007703543,0.001440878,-0.008964489,-0.003936118,0.026130530,0.004118718,0.010242145,-0.013992869,-0.041231837,0.018334975,-0.357606284,0.623427963,0.398506811,-5.232152026,-0.421302378,-0.017507971,-1.065295768,-3.986273158,2.939781249,-1.830863433,-0.815140735,-1.838468526,-0.747679332,2.901221298,-3.227819486
1720790231.087433,-0.003955767,0.013422712,-0.234224316,0.011641529,-0.003322790,0.048344919,0.000000000,0.000000000,0.000000000,0.000000000,0.000000000,0.000000000,0.000245956,0.007753757,-0.001568225,-0.011109379,-0.003185164,0.011804058,-0.007389046,0.006696900,-0.034224316,0.011641529,-0.003322790,0.048435009,0.003433279,0.006725812,-0.200000000,0.000000000,-0.000000000,-0.000090089,0.000000000,0.000000000,0.000000000,0.000000000,0.000000000,0.000000000,0.000000000,0.000000000,0.000000000,-0.000000000,0.000000000,-0.000000000,776000000.000000000,89.000000000,-0.000183208,0.008434450,0.000136178,-0.011233182,-0.001072914,-0.019855217,0.004936556,0.008088666,-0.013151684,-0.027939009,0.025149929,-0.422870345,0.596259997,0.127986819,-5.227455239,-0.424939206,0.045853683,-1.687782964,-5.791700833,4.678093365,-1.784303440,-0.751041815,-1.891772195,-0.800337789,4.894367514,-5.319453045
1720790231.187466,-0.003818774,0.014173799,-0.234407686,0.010490636,-0.003059268,0.043030091,0.000000000,0.000000000,0.000000000,0.000000000,0.000000000,0.000000000,0.001032738,0.007583737,-0.001754056,-0.011389062,0.000889109,-0.033662582,-0.007252053,0.007447987,-0.034407686,0.010490636,-0.003059268,0.043120180,0.003433279,0.006725812,-0.200000000,0.000000000,-0.000000000,-0.000090089,0.000000000,0.000000000,0.000000000,0.000000000,0.000000000,0.000000000,0.000000000,0.000000000,0.000000000,-0.000000000,0.000000000,-0.000000000,876000000.000000000,89.000000000,0.000526016,0.008703058,-0.001294895,-0.011410411,0.001765784,-0.065736181,0.006445536,0.004306859,-0.013963018,-0.009622309,0.027415865,-0.448027852,0.607886190,-0.155614220,-5.094400629,-0.408450389,0.101110431,-2.160258944,-7.088885738,5.992380826,-1.685050121,-0.689311850,-1.883276165,-0.836762493,6.498968596,-6.893526408
1720790231.289559,-0.003602184,0.014806459,-0.234576372,0.009481745,-0.002608631,0.033182348,0.000000000,0.000000000,0.000000000,0.000000000,0.000000000,0.000000000,0.001825951,0.006703744,-0.001707020,-0.010478954,0.003421191,-0.079032974,-0.007035463,0.008080647,-0.034576372,0.009481745,-0.002608631,0.033272437,0.003433279,0.006725812,-0.200000000,0.000000000,-0.000000000,-0.000090089,0.000000000,0.000000000,0.000000000,0.000000000,0.000000000,0.000000000,0.000000000,0.000000000,0.000000000,-0.000000000,0.000000000,-0.000000000,978000000.000000000,89.000000000,0.001295031,0.008387281,-0.002612234,-0.009127245,0.004092157,-0.106976561,0.007316761,-0.000918378,-0.013410279,0.013095472,0.024509375,-0.423091011,0.612349762,-0.522561371,-4.860956736,-0.366352384,0.148360863,-2.469292247,-7.812116396,6.795789430,-1.533214274,-0.643655782,-1.813145054,-0.870941627,7.671901472,-7.981127096
1720790231.388654,-0.003302962,0.015193518,-0.234739858,0.009006541,-0.001967947,0.020121133,0.000000000,0.000000000,0.000000000,0.000000000,0.000000000,0.000000000,0.002601273,0.004667408,-0.001634063,-0.006404895,0.005423204,-0.113345682,-0.006736241,0.008467706,-0.034739858,0.009006541,-0.001967947,0.020211222,0.003433279,0.006725812,-0.200000000,0.000000000,-0.000000000,-0.000090089,0.000000000,0.000000000,0.000000000,0.000000000,0.000000000,0.000000000,0.000000000,0.000000000,0.000000000,-0.000000000,0.000000000,-0.000000000,78000000.000000000,90.000000000,0.002065804,0.007165763,-0.003785454,-0.004202808,0.005460740,-0.132419287,0.007484651,-0.008658486,-0.012074593,0.037723797,0.016745045,-0.301534249,0.593696241,-0.977247544,-4.585071765,-0.300991212,0.178106845,-2.424266775,-7.392338071,6.484990211,-1.356266347,-0.631813390,-1.688747565,-0.908244464,7.805018494,-8.026804876
1720790231.490449,-0.002942071,0.015248473,-0.234927639,0.009117594,-0.001329664,0.006220223,0.000000000,0.000000000,0.000000000,0.000000000,0.000000000,0.000000000,0.003306617,0.001784905,-0.001804692,-0.001144095,0.006094944,-0.131310072,-0.006375350,0.008522661,-0.034927639,0.009117594,-0.001329664,0.006310313,0.003433279,0.006725812,-0.200000000,0.000000000,-0.000000000,-0.000090089,0.000000000,0.000000000,0.000000000,0.000000000,0.000000000,0.000000000,0.000000000,0.000000000,0.000000000,-0.000000000,0.000000000,-0.000000000,180000000.000000000,90.000000000,0.002775660,0.005091811,-0.004820061,0.002229290,0.005519473,-0.137562287,0.007214389,-0.017115208,-0.010864628,0.056341824,0.005434646,-0.126461275,0.522591641,-1.291127731,-4.314694097,-0.225299018,0.181038991,-1.804373939,-5.297527272,4.467557860,-1.193563850,-0.654314839,-1.527030743,-0.939784665,6.060412866,-6.286927727
1720790231.592215,-0.002562851,0.015191555,-0.235194708,0.009886350,-0.000588722,-0.007058787,0.000000000,0.000000000,0.000000000,0.000000000,0.000000000,0.000000000,0.003594474,0.000144860,-0.002374233,0.004932548,0.006913377,-0.130523485,-0.005996130,0.008465743,-0.035194708,0.009886350,-0.000588722,-0.006968698,0.003433279,0.006725812,-0.200000000,0.000000000,-0.000000000,-0.000090089,0.000000000,0.000000000,0.000000000,0.000000000,0.000000000,0.000000000,0.000000000,0.000000000,0.000000000,-0.000000000,0.000000000,-0.000000000,280000000.000000000,90.000000000,0.003311857,0.003138517,-0.005752040,0.008140937,0.004266888,-0.130233099,0.005844095,-0.018539517,-0.009655318,0.057472676,-0.006965774,0.012359967,0.309724721,-1.087208814,-4.081391270,-0.157261583,0.157908406,-0.934226343,-2.660063557,1.977153749,-1.074887591,-0.695879145,-1.358962002,-0.951662532,3.243187460,-3.568447474
1720790231.692605,-0.002192724,0.015146668,-0.235581522,0.011159402,-0.000276758,-0.019308026,0.000000000,0.000000000,0.000000000,0.000000000,0.000000000,0.000000000,0.003669234,-0.000270752,-0.003419964,0.010391126,0.004257763,-0.124901720,-0.005626003,0.008420856,-0.035581522,0.011159402,-0.000276758,-0.019217937,0.003433279,0.006725812,-0.200000000,0.000000000,-0.000000000,-0.000090089,0.000000000,0.000000000,0.000000000,0.000000000,0.000000000,0.000000000,0.000000000,0.000000000,0.000000000,-0.000000000,0.000000000,-0.000000000,380000000.000000000,90.000000000,0.003679537,0.001790037,-0.006573370,0.012213690,0.002088155,-0.117497310,0.004326989,-0.015001215,-0.008645907,0.045751073,-0.017340868,0.092858511,-0.205890320,-0.498684432,-3.896150339,-0.112427317,0.116214876,-0.308423459,-0.798019067,0.593146125,-1.012405668,-0.737011593,-1.216737794,-0.929995283,0.972956238,-1.415577818
1720790231.794212,-0.001815754,0.015029236,-0.236122619,0.012599813,-0.000107915,-0.029857467,0.000000000,0.000000000,0.000000000,0.000000000,0.000000000,0.000000000,0.003739561,-0.000903248,-0.004813673,0.013200215,0.002459234,-0.111316605,-0.005249033,0.008303424,-0.036122619,0.012599813,-0.000107915,-0.029767378,0.003433279,0.006725812,-0.200000000,0.000000000,-0.000000000,-0.000090089,0.000000000,0.000000000,0.000000000,0.000000000,0.000000000,0.000000000,0.000000000,0.000000000,0.000000000,-0.000000000,0.000000000,-0.000000000,480000000.000000000,90.000000000,0.003957379,0.000566058,-0.007256430,0.013839405,-0.000445720,-0.099739538,0.003242993,-0.013068219,-0.007375195,0.025105328,-0.022939386,0.152161961,0.299671826,-0.358288310,-3.713554451,-0.108068480,0.057561997,-0.058469975,-0.239405720,-0.239422124,-1.005973438,-0.752407211,-1.120974987,-0.834198815,0.291886871,-0.424673345
1720790231.894153,-0.001483206,0.014785824,-0.236814310,0.013933596,-0.000367644,-0.038121781,0.000000000,0.000000000,0.000000000,0.000000000,0.000000000,0.000000000,0.003449702,-0.001974861,-0.006285937,0.013296547,-0.001080339,-0.091245175,-0.004916485,0.008060012,-0.036814310,0.013933596,-0.000367644,-0.038031692,0.003433279,0.006725812,-0.200000000,0.000000000,-0.000000000,-0.000090089,0.000000000,0.000000000,0.000000000,0.000000000,0.000000000,0.000000000,0.000000000,0.000000000,0.000000000,-0.000000000,0.000000000,-0.000000000,580000000.000000000,90.000000000,0.003988345,-0.000755389,-0.007693998,0.012995112,-0.002635027,-0.074402926,0.001189658,-0.013170598,-0.005275531,0.001621546,-0.022206961,0.223004873,0.231349662,-0.606994644,-3.401712982,-0.167066783,-0.021305584,0.284650257,0.850743733,-1.500431407,-1.043400853,-0.693875438,-1.075122596,-0.589314094,-0.759863055,0.377322797
1720790231.994205,-0.001284397,0.014412179,-0.237619752,0.015048935,-0.000576754,-0.043142123,0.000000000,0.000000000,0.000000000,0.000000000,0.000000000,0.000000000,0.002426573,-0.003207970,-0.007523873,0.011796341,-0.001787867,-0.062515948,-0.004717676,0.007686367,-0.037619752,0.015048935,-0.000576754,-0.043052034,0.003433279,0.006725812,-0.200000000,0.000000000,-0.000000000,-0.000090089,0.000000000,0.000000000,0.000000000,0.000000000,0.000000000,0.000000000,0.000000000,0.000000000,0.000000000,-0.000000000,0.000000000,-0.000000000,680000000.000000000,90.000000000,0.003516478,-0.002168947,-0.007826714,0.010282965,-0.004005699,-0.040685821,-0.002946170,-0.013846083,-0.002511675,-0.018498569,-0.016256795,0.302921196,0.172539714,-0.845635328,-2.834307816,-0.302439816,-0.098045215,0.764255472,2.375414377,-3.153158892,-1.100492426,-0.484260140,-1.072761023,-0.176794228,-2.207904792,1.629397822
1720790232.096089,-0.001270274,0.013961692,-0.238496547,0.015788218,-0.001130175,-0.044310202,0.000000000,0.000000000,0.000000000,0.000000000,0.000000000,0.000000000,0.000826836,-0.004115800,-0.008394730,0.008713878,-0.004410307,-0.026931334,-0.004703553,0.007235880,-0.038496547,0.015788218,-0.001130175,-0.044220112,0.003433279,0.006725812,-0.200000000,0.000000000,-0.000000000,-0.000090089,0.000000000,0.000000000,0.000000000,0.000000000,0.000000000,0.000000000,0.000000000,0.000000000,0.000000000,-0.000000000,0.000000000,-0.000000000,782000000.000000000,90.000000000,0.002487887,-0.003461523,-0.007746609,0.006489694,-0.004543119,0.000089554,-0.008083991,-0.013201859,-0.000192763,-0.032102464,-0.008638979,0.376303984,0.106425645,-0.988964961,-2.440792222,-0.408831920,-0.041607744,1.314006295,4.117356632,-4.923117492,-1.146242419,-0.145278042,-1.096233493,-0.053038268,-3.872705853,3.189838348
1720790232.196961,-0.001456788,0.013500685,-0.239413099,0.016046772,-0.001517983,-0.041138511,0.000000000,0.000000000,0.000000000,0.000000000,0.000000000,0.000000000,-0.001031947,-0.004398514,-0.008808478,0.004388558,-0.003984523,0.013687100,-0.004890067,0.006774873,-0.039413099,0.016046772,-0.001517983,-0.041048422,0.003433279,0.006725812,-0.200000000,0.000000000,-0.000000000,-0.000090089,0.000000000,0.000000000,0.000000000,0.000000000,0.000000000,0.000000000,0.000000000,0.000000000,0.000000000,-0.000000000,0.000000000,-0.000000000,882000000.000000000,90.000000000,0.000974114,-0.004399708,-0.007544332,0.002247777,-0.004417921,0.044686685,-0.012813830,-0.010399077,0.001330341,-0.038741938,-0.001732492,0.418949934,0.036813529,-1.023643791,-2.333485024,-0.442899048,-0.017332990,1.831263308,5.745961486,-6.498658457,-1.152788142,-0.043583413,-1.121201989,-0.015911481,-5.453759742,4.743572620
1720790232.297295,-0.001826758,0.013129705,-0.240320338,0.015869954,-0.002141503,-0.033357862,0.000000000,0.000000000,0.000000000,0.000000000,0.000000000,0.000000000,-0.002899375,-0.003916417,-0.008993217,0.000078839,-0.005559993,0.058570674,-0.005260037,0.006403893,-0.040320338,0.015869954,-0.002141503,-0.033267773,0.003433279,0.006725812,-0.200000000,0.000000000,-0.000000000,-0.000090089,0.000000000,0.000000000,0.000000000,0.000000000,0.000000000,0.000000000,0.000000000,0.000000000,0.000000000,-0.000000000,0.000000000,-0.000000000,982000000.000000000,90.000000000,-0.000815365,-0.004725273,-0.007200989,-0.001939899,-0.003881703,0.087920194,-0.016370503,-0.005398681,0.002802505,-0.040936313,0.003233777,0.428319542,-0.015845380,-0.948284512,-2.249767108,-0.442814034,0.003501185,2.211363432,6.921482908,-7.576822636,-1.105823598,-0.013075024,-1.126095042,-0.004773444,-6.637686727,5.964049792
1720790232.398113,-0.002307112,0.012927287,-0.241186979,0.015379633,-0.002578374,-0.021864688,0.000000000,0.000000000,0.000000000,0.000000000,0.000000000,0.000000000,-0.004232294,-0.002591852,-0.008764450,-0.003408594,-0.004726096,0.098023423,-0.005740391,0.006201475,-0.041186979,0.015379633,-0.002578374,-0.021774599,0.003433279,0.006725812,-0.200000000,0.000000000,-0.000000000,-0.000090089,0.000000000,0.000000000,0.000000000,0.000000000,0.000000000,0.000000000,0.000000000,0.000000000,0.000000000,-0.000000000,0.000000000,-0.000000000,82000000.000000000,91.000000000,-0.002539194,-0.004259516,-0.006637970,-0.004987009,-0.003595593,0.121410003,-0.016977953,0.001640696,0.004781886,-0.033610665,0.002972904,0.362924529,0.072268786,-0.711106563,-2.080017948,-0.413861774,0.034316306,2.326728407,7.161058975,-7.806961849,-0.977426115,-0.003922507,-1.097237293,-0.001432033,-7.054129659,6.491678039
1720790232.498947,-0.002636064,0.013069647,-0.241979718,0.014701485,-0.003179124,-0.008189608,0.000000000,0.000000000,0.000000000,0.000000000,0.000000000,0.000000000,-0.003572353,0.000218966,-0.008178512,-0.005769615,-0.005623077,0.125132585,-0.006069343,0.006343835,-0.041979718,0.014701485,-0.003179124,-0.008099519,0.003433279,0.006725812,-0.200000000,0.000000000,-0.000000000,-0.000090089,0.000000000,0.000000000,0.000000000,0.000000000,0.000000000,0.000000000,0.000000000,0.000000000,0.000000000,-0.000000000,0.000000000,-0.000000000,182000000.000000000,91.000000000,-0.003202818,-0.002486605,-0.005758459,-0.006304680,-0.004016614,0.136410206,-0.009738757,0.012902587,0.007591147,-0.019306895,-0.002055273,0.213878775,0.531788924,-0.207225295,-1.283847448,-0.434513174,0.091140469,1.995638050,5.720411847,-6.714987777,-0.703076370,0.216948319,-1.025130288,0.227410891,-6.200724997,5.820224036
1720790232.598301,-0.002881778,0.013405270,-0.242666621,0.013936338,-0.003828266,0.005474045,0.000000000,0.000000000,0.000000000,0.000000000,0.000000000,0.000000000,-0.002791705,0.002415052,-0.007261871,-0.007086916,-0.006230918,0.133185346,-0.006315057,0.006679458,-0.042666621,0.013936338,-0.003828266,0.005564134,0.003433279,0.006725812,-0.200000000,0.000000000,-0.000000000,-0.000090089,0.000000000,0.000000000,0.000000000,0.000000000,0.000000000,0.000000000,0.000000000,0.000000000,0.000000000,-0.000000000,0.000000000,-0.000000000,282000000.000000000,91.000000000,-0.003313746,-0.000406515,-0.004468738,-0.006797118,-0.004683269,0.134219484,-0.003698122,0.018431404,0.011305389,-0.009239133,-0.005283164,0.048828579,0.741766663,0.114013724,-0.308299694,-0.377543024,0.203376736,1.242091608,3.162119195,-4.334722525,-0.210922911,0.404425604,-0.887084495,0.385282109,-4.020464504,3.704404664
1720790232.698695,-0.003101767,0.013762663,-0.243206577,0.013226366,-0.004553676,0.018386166,0.000000000,0.000000000,0.000000000,0.000000000,0.000000000,0.000000000,-0.002377434,0.003226264,-0.005958253,-0.007095875,-0.006947146,0.130340454,-0.006535046,0.007036851,-0.043206577,0.013226366,-0.004553676,0.018476255,0.003433279,0.006725812,-0.200000000,0.000000000,-0.000000000,-0.000090089,0.000000000,0.000000000,0.000000000,0.000000000,0.000000000,0.000000000,0.000000000,0.000000000,0.000000000,-0.000000000,0.000000000,-0.000000000,382000000.000000000,91.000000000,-0.003217256,0.001173361,-0.002755699,-0.006893958,-0.005413413,0.123925531,-0.000434007,0.016588554,0.015382888,-0.003449620,-0.006695961,-0.057409095,0.618342077,0.174113570,0.380342170,-0.353035048,0.184068298,0.502173183,0.948635758,-1.954292232,-0.063276873,0.568094622,-0.629139662,0.504664083,-1.771395365,1.479759765
1720790232.799693,-0.003299977,0.014089100,-0.243567994,0.012494876,-0.005324071,0.029727851,0.000000000,0.000000000,0.000000000,0.000000000,0.000000000,0.000000000,-0.002100696,0.003252943,-0.004317401,-0.007249190,-0.007476911,0.118493927,-0.006733256,0.007363288,-0.043567994,0.012494876,-0.005324071,0.029817940,0.003433279,0.006725812,-0.200000000,0.000000000,-0.000000000,-0.000090089,0.000000000,0.000000000,0.000000000,0.000000000,0.000000000,0.000000000,0.000000000,0.000000000,0.000000000,-0.000000000,0.000000000,-0.000000000,482000000.000000000,91.000000000,-0.002991253,0.002162970,-0.000721807,-0.006899701,-0.006020878,0.109354276,0.001451819,0.011903826,0.018852108,-0.001075085,-0.006261042,-0.119221514,0.185502623,0.052234071,1.083133194,-0.299716623,0.083084921,0.150651955,0.284590728,-0.586287670,-0.018983062,0.702575165,-0.188741899,0.588282990,-0.531418609,0.443927930
1720790232.900748,-0.003449908,0.014417726,-0.243725300,0.011669654,-0.005997540,0.039282440,0.000000000,0.000000000,0.000000000,0.000000000,0.000000000,0.000000000,-0.001679729,0.003276259,-0.002396361,-0.007951316,-0.006957354,0.102430305,-0.006883187,0.007691914,-0.043725300,0.011669654,-0.005997540,0.039372529,0.003433279,0.006725812,-0.200000000,0.000000000,-0.000000000,-0.000090089,0.000000000,0.000000000,0.000000000,0.000000000,0.000000000,0.000000000,0.000000000,0.000000000,0.000000000,-0.000000000,0.000000000,-0.000000000,584000000.000000000,91.000000000,-0.002582468,0.002851975,0.001521310,-0.006962712,-0.006341103,0.088464675,0.003297040,0.008394184,0.021357451,-0.000763603,-0.004119885,-0.181993663,0.319585994,0.054915372,1.374816367,-0.299890269,0.066400488,-0.122558040,-0.718152430,0.087731327,-0.005694919,0.806608210,-0.056622570,0.630525645,0.217334428,-0.478718586
1720790233.000957,-0.003532813,0.014781678,-0.243655521,0.011000914,-0.006770002,0.045988865,0.000000000,0.000000000,0.000000000,0.000000000,0.000000000,0.000000000,-0.001072873,0.003480589,-0.000240029,-0.006974784,-0.007388414,0.076753578,-0.006966092,0.008055866,-0.043655521,0.011000914,-0.006770002,0.046078955,0.003433279,0.006725812,-0.200000000,0.000000000,-0.000000000,-0.000090089,0.000000000,0.000000000,0.000000000,0.000000000,0.000000000,0.000000000,0.000000000,0.000000000,0.000000000,-0.000000000,0.000000000,-0.000000000,684000000.000000000,91.000000000,-0.001964463,0.003426762,0.003860106,-0.007056664,-0.006194447,0.059556028,0.005230320,0.006462876,0.022457802,-0.000873852,-0.000229506,-0.252990775,0.518658779,-0.019864621,1.465520664,-0.300582231,0.084760402,-0.546699209,-2.161083837,1.168924149,-0.001708476,0.879358384,-0.016986771,0.604857526,1.488245339,-1.881491889
1720790233.101105,-0.003542828,0.015150831,-0.243347215,0.010272091,-0.007425982,0.049440672,0.000000000,0.000000000,0.000000000,0.000000000,0.000000000,0.000000000,-0.000391967,0.003628249,0.002086132,-0.007194197,-0.006808386,0.047188719,-0.006976107,0.008425019,-0.043347215,0.010272091,-0.007425982,0.049530761,0.003433279,0.006725812,-0.200000000,0.000000000,-0.000000000,-0.000090089,0.000000000,0.000000000,0.000000000,0.000000000,0.000000000,0.000000000,0.000000000,0.000000000,0.000000000,-0.000000000,0.000000000,-0.000000000,784000000.000000000,91.000000000,-0.001224854,0.003825662,0.006133936,-0.007072101,-0.005509496,0.022919903,0.006746362,0.004731163,0.022654145,-0.000370213,0.004725805,-0.332350108,0.683963010,-0.163815301,1.347048266,-0.271653083,0.142115805,-1.091086427,-3.869971610,2.651791684,-0.000512543,0.916969676,-0.005096031,0.435687164,3.210504797,-3.638889100
1720790233.201273,-0.003446619,0.015525082,-0.242788593,0.009550885,-0.007741732,0.048616585,0.000000000,0.000000000,0.000000000,0.000000000,0.000000000,0.000000000,0.000555870,0.003708229,0.004536194,-0.007206703,-0.004252770,0.008388009,-0.006879898,0.008799270,-0.042788593,0.009550885,-0.007741732,0.048706674,0.003433279,0.006725812,-0.200000000,0.000000000,-0.000000000,-0.000090089,0.000000000,0.000000000,0.000000000,0.000000000,0.000000000,0.000000000,0.000000000,0.000000000,0.000000000,-0.000000000,0.000000000,-0.000000000,884000000.000000000,91.000000000,-0.000267414,0.004069176,0.008273748,-0.006916306,-0.004393985,-0.019223059,0.008725984,0.003123945,0.021774929,0.000979497,0.009226317,-0.394705765,0.793227983,-0.348776149,1.039293793,-0.208531787,0.228424691,-1.652406487,-5.540558524,4.235705077,-0.000153763,0.910270216,-0.001528809,0.130706149,5.042465049,-5.431350849
1720790233.301956,-0.003274429,0.015819717,-0.241977069,0.009034314,-0.008135037,0.043522702,0.000000000,0.000000000,0.000000000,0.000000000,0.000000000,0.000000000,0.001372092,0.003174916,0.007041527,-0.005778004,-0.004028960,-0.033140782,-0.006707708,0.009093905,-0.041977069,0.009034314,-0.008135037,0.043612791,0.003433279,0.006725812,-0.200000000,0.000000000,-0.000000000,-0.000090089,0.000000000,0.000000000,0.000000000,0.000000000,0.000000000,0.000000000,0.000000000,0.000000000,0.000000000,-0.000000000,0.000000000,-0.000000000,984000000.000000000,91.000000000,0.000680683,0.003865281,0.010240899,-0.006394112,-0.003052211,-0.062969982,0.009254478,-0.000490080,0.020302534,0.003949208,0.012160317,-0.424640190,0.843144959,-0.555222898,0.675720636,-0.212703364,0.288112755,-2.120448328,-6.860226366,5.577493922,-0.000046129,0.830406883,-0.193851963,0.039211845,6.619521069,-6.928645015
1720790233.402558,-0.002989254,0.016013141,-0.240940613,0.008438384,-0.008245816,0.034112628,0.000000000,0.000000000,0.000000000,0.000000000,0.000000000,0.000000000,0.002407856,0.002306443,0.009367646,-0.005904916,-0.001984145,-0.075812752,-0.006422533,0.009287329,-0.040940613,0.008438384,-0.008245816,0.034202717,0.003433279,0.006725812,-0.200000000,0.000000000,-0.000000000,-0.000090089,0.000000000,0.000000000,0.000000000,0.000000000,0.000000000,0.000000000,0.000000000,0.000000000,0.000000000,-0.000000000,0.000000000,-0.000000000,84000000.000000000,92.000000000,0.001751041,0.003267036,0.011845286,-0.005131038,-0.001603755,-0.102693247,0.010268849,-0.004334744,0.017321474,0.010026279,0.013787288,-0.405454910,0.834861664,-0.782130001,0.261419206,-0.189494184,0.270245469,-2.397011423,-7.542773722,6.362666273,-0.000013839,0.592681508,-0.343012017,0.011763553,7.626818020,-7.842881977
1720790233.502298,-0.002629595,0.015992479,-0.239713101,0.008265750,-0.008076828,0.021619317,0.000000000,0.000000000,0.000000000,0.000000000,0.000000000,0.000000000,0.003239967,0.000547300,0.011402880,-0.002979909,0.000587673,-0.110197003,-0.006062874,0.009266667,-0.039713101,0.008265750,-0.008076828,0.021709406,0.003433279,0.006725812,-0.200000000,0.000000000,-0.000000000,-0.000090089,0.000000000,0.000000000,0.000000000,0.000000000,0.000000000,0.000000000,0.000000000,0.000000000,0.000000000,-0.000000000,0.000000000,-0.000000000,184000000.000000000,92.000000000,0.002714722,0.001963757,0.013083071,-0.002672253,-0.000118168,-0.127982737,0.009826419,-0.010423377,0.013860936,0.020219382,0.014535295,-0.298662908,0.763090575,-1.025966504,-0.317702736,-0.136073955,0.196941226,-2.330899230,-7.142888124,6.113616143,-0.000004152,0.177804453,-0.499032103,0.003529066,7.580166120,-7.728271155
1720790233.601857,-0.002238631,0.015693213,-0.238330197,0.008385541,-0.007872318,0.008039733,0.000000000,0.000000000,0.000000000,0.000000000,0.000000000,0.000000000,0.003708735,-0.001930674,0.013101193,-0.000055437,0.001607875,-0.128116188,-0.005671910,0.008967401,-0.038330197,0.008385541,-0.007872318,0.008129822,0.003433279,0.006725812,-0.200000000,0.000000000,-0.000000000,-0.000090089,0.000000000,0.000000000,0.000000000,0.000000000,0.000000000,0.000000000,0.000000000,0.000000000,0.000000000,-0.000000000,0.000000000,-0.000000000,284000000.000000000,92.000000000,0.003428457,-0.000050723,0.013980960,0.000630306,0.001158038,-0.133798588,0.007944074,-0.017228371,0.010443502,0.029183725,0.013294027,-0.130309823,0.601111716,-1.117044175,-0.822739054,-0.106874549,0.271855126,-1.727322701,-5.180016881,4.287024122,-0.000001245,0.053341336,-0.678554655,-0.197524490,5.751130489,-5.949998865
1720790233.704090,-0.001851055,0.015269604,-0.236840499,0.008814432,-0.007718610,-0.005162336,0.000000000,0.000000000,0.000000000,0.000000000,0.000000000,0.000000000,0.003825656,-0.003544463,0.014358246,0.002985605,0.001558317,-0.130849340,-0.005284334,0.008543792,-0.036840499,0.008814432,-0.007718610,-0.005072247,0.003433279,0.006725812,-0.200000000,0.000000000,-0.000000000,-0.000090089,0.000000000,0.000000000,0.000000000,0.000000000,0.000000000,0.000000000,0.000000000,0.000000000,0.000000000,-0.000000000,0.000000000,-0.000000000,386000000.000000000,92.000000000,0.003883263,-0.001887181,0.014500425,0.003847043,0.001896478,-0.127135631,0.005566866,-0.018023715,0.006769304,0.031272277,0.009157287,0.007547750,0.333689731,-0.855764169,-1.280097295,-0.097670795,0.383789645,-0.892583465,-2.660650628,1.952846628,-0.000000374,0.016002401,-0.884225261,-0.411874061,3.001272304,-3.323753290
1720790233.803670,-0.001461759,0.014852784,-0.235302619,0.009409167,-0.007363653,-0.016891140,0.000000000,0.000000000,0.000000000,0.000000000,0.000000000,0.000000000,0.003819339,-0.003923867,0.014861551,0.004977200,0.002903476,-0.119746593,-0.004895037,0.008126972,-0.035302619,0.009409167,-0.007363653,-0.016801051,0.003433279,0.006725812,-0.200000000,0.000000000,-0.000000000,-0.000090089,0.000000000,0.000000000,0.000000000,0.000000000,0.000000000,0.000000000,0.000000000,0.000000000,0.000000000,-0.000000000,0.000000000,-0.000000000,486000000.000000000,92.000000000,0.004181272,-0.003032342,0.014577378,0.006378267,0.001962118,-0.115155312,0.003715216,-0.013266063,0.002558901,0.026752833,0.003197658,0.084482197,-0.158301451,-0.405925769,-1.758347364,-0.093347661,0.517124960,-0.292123911,-0.798195188,0.585853988,-0.000000112,0.004800720,-1.112542723,-0.650605250,0.900381691,-1.295519024
1720790233.907964,-0.001066855,0.014409056,-0.233820182,0.010368629,-0.006966832,-0.027325145,0.000000000,0.000000000,0.000000000,0.000000000,0.000000000,0.000000000,0.003910129,-0.004283255,0.014835523,0.008209388,0.003648788,-0.108962011,-0.004500134,0.007683244,-0.033820182,0.010368629,-0.006966832,-0.027235056,0.003433279,0.006725812,-0.200000000,0.000000000,-0.000000000,-0.000090089,0.000000000,0.000000000,0.000000000,0.000000000,0.000000000,0.000000000,0.000000000,0.000000000,0.000000000,-0.000000000,0.000000000,-0.000000000,588000000.000000000,92.000000000,0.004426929,-0.003875201,0.014123430,0.007811064,0.001460614,-0.098483077,0.002834165,-0.009879833,-0.002409961,0.018055427,-0.002551232,0.142050310,0.255505693,-0.296717759,-2.809632641,-0.117104712,0.505117675,-0.059086961,-0.239458557,-0.174123860,-0.331634610,-0.209732694,-1.365943490,-0.902321847,0.270114507,-0.388655707
1720790234.005677,-0.000718092,0.013863891,-0.232446969,0.011250146,-0.006910064,-0.035495387,0.000000000,0.000000000,0.000000000,0.000000000,0.000000000,0.000000000,0.003566508,-0.005026305,0.013874665,0.008512448,0.001484224,-0.088758890,-0.004151371,0.007138079,-0.032446969,0.011250146,-0.006910064,-0.035405298,0.003433279,0.006725812,-0.200000000,0.000000000,-0.000000000,-0.000090089,0.000000000,0.000000000,0.000000000,0.000000000,0.000000000,0.000000000,0.000000000,0.000000000,0.000000000,-0.000000000,0.000000000,-0.000000000,688000000.000000000,92.000000000,0.004366767,-0.004775737,0.013123672,0.008018534,0.000557338,-0.074464203,0.000437372,-0.009144098,-0.007584072,0.006840442,-0.006964320,0.207450497,0.163877629,-0.407357131,-3.852806504,-0.138186070,0.508022533,0.277705319,0.758217941,-1.350764920,-0.630441998,-0.427546667,-1.641426429,-1.153391410,-0.848790221,0.445478379
1720790234.105891,-0.000473066,0.013265573,-0.231285583,0.011943786,-0.006838020,-0.040647322,0.000000000,0.000000000,0.000000000,0.000000000,0.000000000,0.000000000,0.002785132,-0.005696118,0.012292101,0.007409212,0.000949572,-0.062691212,-0.003906345,0.006539761,-0.031285583,0.011943786,-0.006838020,-0.040557233,0.003433279,0.006725812,-0.200000000,0.000000000,-0.000000000,-0.000090089,0.000000000,0.000000000,0.000000000,0.000000000,0.000000000,0.000000000,0.000000000,0.000000000,0.000000000,-0.000000000,0.000000000,-0.000000000,788000000.000000000,92.000000000,0.003924195,-0.005591780,0.011542064,0.006936870,-0.000378944,-0.042182189,-0.002966795,-0.008455532,-0.013346478,-0.005519517,-0.008643271,0.288209247,0.087247759,-0.507129408,-4.912691321,-0.165983478,0.502308828,0.750633134,2.195878001,-2.910719139,-0.943547503,-0.654150587,-1.927756851,-1.387236379,-2.353215736,1.739122588
1720790234.209562,-0.000414708,0.012618151,-0.230379270,0.012549414,-0.006911217,-0.042067495,0.000000000,0.000000000,0.000000000,0.000000000,0.000000000,0.000000000,0.001244049,-0.006240791,0.010031827,0.006462157,-0.000227508,-0.028748579,-0.003845484,0.005897242,-0.030379269,0.012549414,-0.006911217,-0.041986148,0.003430776,0.006720909,-0.200000001,0.000000000,-0.000000000,-0.000081348,0.000000000,0.000000000,0.000000000,0.000000000,0.000000000,0.000000000,-0.000017520,-0.000034322,-0.000000005,-0.000000000,0.000000000,0.000061191,890000000.000000000,92.000000000,0.002850905,-0.006332654,0.009439507,0.004778078,-0.000972973,-0.002795714,-0.008403067,-0.007722777,-0.018721845,-0.016767403,-0.006751181,0.362168102,0.003507193,-0.530251038,-5.943473880,-0.204315901,0.484385399,1.289008983,3.848305824,-4.580284570,-1.270583757,-0.873143954,-2.211942937,-1.587803232,-4.048008594,3.320079725
1720790234.308562,-0.000552834,0.012006626,-0.229764940,0.012849382,-0.007091150,-0.039230123,0.000000000,0.000000000,0.000000000,0.000000000,0.000000000,0.000000000,-0.000574709,-0.006068981,0.007225535,0.003997253,-0.001303087,0.010847587,-0.003977002,0.005298676,-0.029764918,0.012849382,-0.007091150,-0.039186630,0.003424169,0.006707950,-0.200000022,0.000000000,-0.000000000,-0.000043493,0.000000000,0.000000000,0.000000000,0.000000000,0.000000000,0.000000000,-0.000050602,-0.000099231,-0.000000146,-0.000000000,0.000000000,0.000278145,990000000.000000000,92.000000000,0.001280858,-0.006644756,0.006864783,0.002073882,-0.000926874,0.040710013,-0.013295751,-0.004458713,-0.023286229,-0.023588426,-0.001708991,0.407219146,-0.083411071,-0.473838143,-6.877080356,-0.250418407,0.462995104,1.792801823,5.395242081,-6.063901347,-1.585303057,-1.061792499,-2.479283138,-1.750701662,-5.638222022,4.873245121
1720790234.410047,-0.000906858,0.011530346,-0.229470396,0.012694852,-0.007229105,-0.031887090,0.000000000,0.000000000,0.000000000,0.000000000,0.000000000,0.000000000,-0.002650583,-0.005154650,0.004229467,0.000117469,-0.001356608,0.054655511,-0.004319371,0.004845373,-0.029470249,0.012694852,-0.007229105,-0.031934802,0.003412513,0.006684974,-0.200000147,0.000000000,-0.000000000,0.000047712,0.000000000,0.000000000,0.000000000,0.000000000,0.000000000,0.000000000,-0.000096772,-0.000190604,-0.000000921,-0.000000000,0.000000000,0.000721877,90000000.000000000,93.000000000,-0.000693553,-0.006356923,0.003896159,-0.000409792,-0.000190644,0.083632316,-0.017809604,0.000677217,-0.027766238,-0.024462248,0.004640911,0.422621860,-0.155859131,-0.341213897,-7.653571817,-0.296266344,0.444089164,2.165970449,6.525989142,-7.087102506,-1.858611838,-1.209047294,-2.708839930,-1.877072755,-6.835876560,6.094787294
1720790234.510870,-0.001455074,0.011239535,-0.229481970,0.012467658,-0.007327837,-0.020782822,0.000000000,0.000000000,0.000000000,0.000000000,0.000000000,0.000000000,-0.004632685,-0.003582075,0.001187822,-0.001555119,-0.001098107,0.094126529,-0.004850414,0.004588821,-0.029481383,0.012467658,-0.007327837,-0.020999009,0.003395340,0.006650714,-0.200000587,0.000000000,-0.000000000,0.000216187,0.000000000,0.000000000,0.000000000,0.000000000,0.000000000,0.000000000,-0.000149239,-0.000297000,-0.000003355,-0.000000000,0.000000000,0.001395888,192000000.000000000,93.000000000,-0.002869301,-0.005401641,0.000666195,-0.001431392,0.000666653,0.118479028,-0.020573116,0.006890144,-0.030939615,-0.014489874,0.007393356,0.370713543,-0.105961541,-0.077484822,-8.211220194,-0.336170050,0.428512369,2.292315293,6.796141071,-7.327393342,-2.067232254,-1.305878067,-2.878802967,-1.959306905,-7.311087238,6.657477530
1720790234.610787,-0.001931514,0.011348751,-0.229811244,0.012228862,-0.007321467,-0.007146154,0.000000000,0.000000000,0.000000000,0.000000000,0.000000000,0.000000000,-0.004659493,-0.000325099,-0.001903378,-0.002105335,-0.000285718,0.121822935,-0.005304037,0.004744587,-0.029809497,0.012228862,-0.007321467,-0.007629600,0.003372523,0.006604164,-0.200001747,0.000000000,-0.000000000,0.000483446,0.000000000,0.000000000,0.000000000,0.000000000,0.000000000,0.000000000,-0.000201357,-0.000408559,-0.000008969,-0.000000000,0.000000000,0.002252896,292000000.000000000,93.000000000,-0.004073641,-0.003016943,-0.002774372,-0.000540805,0.000711423,0.136245343,-0.014437010,0.018432617,-0.032893621,0.001764912,0.002525247,0.233139759,0.278176441,0.419567061,-8.498880229,-0.364182596,0.417114233,1.995005031,5.484631950,-6.320096522,-2.189974093,-1.346450239,-2.969922512,-1.992533386,-6.579053629,6.064808966
1720790234.712788,-0.002325697,0.011701291,-0.230470723,0.012170400,-0.007529477,0.006765188,0.000000000,0.000000000,0.000000000,0.000000000,0.000000000,0.000000000,-0.004157126,0.002370251,-0.005187362,-0.001040830,-0.001541783,0.133926270,-0.005669871,0.005157092,-0.030466422,0.012170400,-0.007529477,0.005897481,0.003344174,0.006544199,-0.200004301,0.000000000,-0.000000000,0.000867707,0.000000000,0.000000000,0.000000000,0.000000000,0.000000000,0.000000000,-0.000258851,-0.000542322,-0.000020565,-0.000000000,0.000000000,0.003365697,394000000.000000000,93.000000000,-0.004540800,-0.000394098,-0.006191567,0.000495809,0.000209681,0.135917067,-0.007601218,0.023889697,-0.033788452,0.007785768,-0.002754620,0.067643991,0.488926503,0.624450277,-8.493281464,-0.373816984,0.406501768,1.264542056,3.055188076,-4.068781108,-2.215562370,-1.336203545,-2.965620822,-1.975894726,-4.410941256,3.961928482
1720790234.813274,-0.002694812,0.012078440,-0.231460183,0.012127793,-0.007697982,0.019677776,0.000000000,0.000000000,0.000000000,0.000000000,0.000000000,0.000000000,-0.003780283,0.003299351,-0.008346625,-0.000604650,-0.001618943,0.128793685,-0.006005384,0.005609189,-0.031450928,0.012127793,-0.007697982,0.018294103,0.003310572,0.006469251,-0.200009255,0.000000000,-0.000000000,0.001383674,0.000000000,0.000000000,0.000000000,0.000000000,0.000000000,0.000000000,-0.000308260,-0.000677046,-0.000040172,-0.000000000,0.000000000,0.004550657,494000000.000000000,93.000000000,-0.004641970,0.001476199,-0.009417221,0.000789117,-0.000455755,0.126414419,-0.002974668,0.020002282,-0.032273379,0.004348630,-0.005393102,-0.044921051,0.449608187,0.471335183,-8.191899578,-0.367647444,0.393156672,0.523335142,0.916556423,-1.818818824,-2.149372022,-1.274515080,-2.865696378,-1.902316098,-2.030564984,1.647480629
1720790234.913243,-0.003020289,0.012409340,-0.232729354,0.012246973,-0.007883303,0.031382228,0.000000000,0.000000000,0.000000000,0.000000000,0.000000000,0.000000000,-0.003412425,0.003306106,-0.011388179,0.000652864,-0.001782932,0.120569270,-0.006292399,0.006032305,-0.032711338,0.012246973,-0.007883303,0.029339558,0.003272110,0.006377035,-0.200018016,0.000000000,-0.000000000,0.002042670,0.000000000,0.000000000,0.000000000,0.000000000,0.000000000,0.000000000,-0.000361710,-0.000848626,-0.000073373,-0.000000000,0.000000000,0.005978171,594000000.000000000,93.000000000,-0.004480207,0.002523452,-0.012227256,0.000067589,-0.000859574,0.112785187,0.000239939,0.013331455,-0.029352258,-0.003746102,-0.004444664,-0.108880941,0.134882456,0.141400555,-7.567964149,-0.361112059,0.385068356,0.157000543,0.274966927,-0.545645647,-2.003392696,-1.122352873,-2.683369525,-1.758849055,-0.609169495,0.494244189
1720790235.013359,-0.003315895,0.012738897,-0.234208230,0.011900996,-0.008088756,0.041390702,0.000000000,0.000000000,0.000000000,0.000000000,0.000000000,0.000000000,-0.003092967,0.003298731,-0.013768590,-0.002225982,-0.001973051,0.106230097,-0.006545156,0.006474573,-0.034175793,0.011900996,-0.008088756,0.038537752,0.003229262,0.006264324,-0.200032437,0.000000000,-0.000000000,0.002852950,0.000000000,0.000000000,0.000000000,0.000000000,0.000000000,0.000000000,-0.000408452,-0.001043567,-0.000122963,-0.000000000,0.000000000,0.007465411,694000000.000000000,93.000000000,-0.004187177,0.003188418,-0.014352861,-0.001434040,-0.000733066,0.093643254,0.002123188,0.008654199,-0.023684913,-0.011635237,-0.000447845,-0.166657811,0.275938952,0.171258746,-6.488804861,-0.377653491,0.410848198,-0.103942988,-0.698406257,0.109758051,-1.749387134,-0.792710684,-2.439149023,-1.507558020,0.097817406,-0.367829410
1720790235.114167,-0.003537024,0.013139833,-0.235773068,0.011606330,-0.008348472,0.048854649,0.000000000,0.000000000,0.000000000,0.000000000,0.000000000,0.000000000,-0.002475794,0.003796173,-0.015084444,-0.002730457,-0.002409927,0.084116661,-0.006719577,0.007013068,-0.035718197,0.011606330,-0.008348472,0.045034573,0.003182553,0.006126765,-0.200054871,0.000000000,-0.000000000,0.003820076,0.000000000,0.000000000,0.000000000,0.000000000,0.000000000,0.000000000,-0.000449493,-0.001275982,-0.000193927,-0.000000000,0.000000000,0.009009509,794000000.000000000,93.000000000,-0.003623603,0.003891625,-0.015484569,-0.003091158,-0.000195812,0.067051107,0.004581977,0.007518709,-0.015027429,-0.015090397,0.003626425,-0.236142375,0.449295192,0.151185246,-4.739923743,-0.425645108,0.492747198,-0.502290013,-2.078956204,1.149986478,-1.289845764,-0.237813205,-2.144228877,-1.068035897,1.258209541,-1.668362648
